,City,Max_Temp,Humidity,Cloudiness,Wind_Speed,Latitude,Longitude
0,Sibu,30.0,74,40,2.06,2.3,111.8167
1,Āgaro,16.16,98,100,0.42,7.85,36.65
2,Vitim,2.08,98,100,4.72,59.4511,112.5578
3,East London,19.77,46,86,4.13,-33.0153,27.9116
4,Jamestown,1.11,86,40,4.63,42.097,-79.2353
5,Sihorā,26.0,29,20,3.09,23.4833,80.1167
6,Rikitea,25.53,74,26,2.36,-23.1203,-134.9692
7,Qaanaaq,-1.98,64,5,3.98,77.484,-69.3632
8,Margate,6.11,68,10,1.79,51.3813,1.3862
9,Thompson,-1.0,100,90,0.99,55.7435,-97.8558
10,Cartagena,24.0,100,75,4.12,10.3997,-75.5144
11,Ushuaia,8.0,76,75,5.66,-54.8,-68.3
12,Sawtell,22.0,56,14,5.14,-30.3833,153.1
13,Hermanus,15.0,92,1,1.34,-34.4187,19.2345
14,Rocha,14.47,78,66,3.02,-34.4833,-54.3333
15,Ahipara,17.62,65,24,3.88,-35.1667,173.1667
16,Hilo,23.0,78,90,1.54,19.7297,-155.09
17,Łańcut,-1.11,86,0,2.57,50.0687,22.2291
18,Safaga,21.0,40,0,0.79,26.7292,33.9365
19,Puerto Ayora,23.95,85,6,3.0,-0.7393,-90.3518
20,Lebu,12.45,92,28,4.19,-37.6167,-73.65
21,Albany,7.78,50,38,0.45,42.6001,-73.9662
22,Punta Arenas,7.0,93,90,2.57,-53.15,-70.9167
23,Dikson,-7.53,93,100,8.32,73.5069,80.5464
24,Bethel,13.0,50,1,2.06,41.3712,-73.414
25,Iisaku Parish,0.79,97,100,3.74,59.1014,27.3081
26,Mwanza,19.19,88,90,1.25,-2.5167,32.9
27,Sitka,13.0,47,1,2.57,57.0531,-135.33
28,Rawson,15.63,51,33,8.43,-43.3002,-65.1023
29,Ulladulla,20.56,42,0,2.57,-35.35,150.4667
30,Clyde River,-5.0,93,90,8.23,70.4692,-68.5914
31,Hong Kong,23.89,78,100,2.68,22.2855,114.1577
32,Port Alfred,21.93,45,91,4.23,-33.5906,26.891
33,Hithadhoo,28.11,67,63,2.01,-0.6,73.0833
34,Mataura,8.89,72,100,8.94,-46.1927,168.8643
35,Bredasdorp,10.0,93,95,2.06,-34.5322,20.0403
36,Kruisfontein,17.79,61,100,1.98,-34.0033,24.7314
37,Port Hardy,11.0,82,75,2.06,50.6996,-127.4199
38,Ibipeba,20.76,80,100,1.51,-11.6408,-42.0111
39,Klaksvík,6.0,100,100,8.75,62.2266,-6.589
40,Chapais,-4.0,93,90,6.17,49.7834,-74.8492
41,Tazmalt,17.38,50,57,2.94,36.3868,4.3989
42,Busselton,22.78,65,99,1.34,-33.65,115.3333
43,Cap-aux-Meules,5.0,81,100,5.14,47.3821,-61.8597
44,San Juan,18.0,46,0,2.11,-31.5375,-68.5364
45,Forestville,14.44,62,1,4.12,38.8451,-76.875
46,Yellowknife,-13.0,78,90,5.14,62.456,-114.3525
47,Bluff,8.89,72,87,8.94,-46.6,168.3333
48,Kapaa,25.0,73,1,6.17,22.0752,-159.319
49,Emerald,26.67,29,0,4.63,-23.5333,148.1667
50,Kearney,19.0,63,1,5.14,40.6995,-99.0815
51,Sambava,22.7,88,100,3.47,-14.2667,50.1667
52,Aklavik,-10.0,73,100,4.12,68.2191,-135.0107
53,Roald,2.0,87,9,5.66,62.5833,6.1333
54,Khatanga,-8.97,88,100,7.21,71.9667,102.5
55,Grandview,18.0,55,1,4.63,38.8858,-94.533
56,Juba,21.4,91,100,0.57,4.8517,31.5825
57,Naze,25.0,57,75,6.69,28.3667,129.4833
58,Cape Town,17.0,82,75,4.12,-33.9258,18.4232
59,Atuona,26.67,76,64,7.5,-9.8,-139.0333
60,Kaitangata,8.89,74,100,6.71,-46.2817,169.8464
61,Vikhorevka,4.0,60,100,6.0,56.1201,101.1636
62,Salalah,28.0,69,40,0.51,17.0151,54.0924
63,Torbay,5.0,65,1,5.14,47.6666,-52.7314
64,Omboué,25.92,85,71,1.37,-1.5746,9.2618
65,Savannah Bight,27.22,91,28,0.45,16.45,-85.85
66,Broken Hill,20.0,42,0,3.6,-31.95,141.4333
67,Birao,23.74,69,100,1.21,10.2849,22.7882
68,Grand Gaube,23.89,90,100,1.79,-20.0064,57.6608
69,Pumiao,19.0,88,75,3.0,22.75,108.4833
70,Yerbogachën,-1.2,62,100,5.86,61.2767,108.0108
71,Alihe,17.07,20,99,5.41,50.5667,123.7167
72,Sur,30.17,40,23,2.16,22.5667,59.5289
73,Nanning,19.0,88,75,3.0,22.8167,108.3167
74,Tuktoyaktuk,-11.0,79,90,5.14,69.4541,-133.0374
75,Hobart,19.0,45,20,8.75,-42.8794,147.3294
76,New Norfolk,19.0,45,20,8.75,-42.7826,147.0587
77,Butaritari,28.45,73,17,5.17,3.0707,172.7902
78,Podgornoye,4.0,75,0,1.0,51.735,39.1496
79,Sosnovo-Ozerskoye,0.98,98,100,8.72,52.5249,111.5418
80,Hamilton,8.89,61,20,1.43,39.1834,-84.5333
81,Arlit,30.81,10,17,4.29,18.7369,7.3853
82,Solnechnyy,9.99,32,70,2.02,50.7214,136.6319
83,Cockburn Town,25.74,74,50,7.48,21.4612,-71.1419
84,Walla Walla,14.0,35,1,2.57,46.0646,-118.343
85,Calabozo,31.34,41,100,3.52,8.9242,-67.4293
86,San Patricio,22.22,88,75,5.14,28.017,-97.5169
87,Corumbá,19.6,90,100,1.63,-19.0092,-57.6533
88,Seoul,19.0,63,75,5.14,37.5683,126.9778
89,Pampas,8.31,96,72,0.86,-12.4,-74.9
90,Avarua,28.0,74,20,4.12,-21.2078,-159.775
91,Mar del Plata,16.11,94,1,2.06,-38.0023,-57.5575
92,Esperance,27.0,26,17,6.69,-33.8667,121.9
93,Sal Rei,20.0,73,75,3.6,16.1833,-22.9167
94,Hualmay,18.97,88,20,4.04,-11.0964,-77.6139
95,Ibirubá,12.61,84,27,2.01,-28.6275,-53.0897
96,Rādhanpur,32.53,25,0,4.97,23.8333,71.6
97,Shenjiamen,17.25,79,8,3.62,29.9576,122.298
98,Acapulco de Juárez,28.0,78,75,2.57,16.8634,-99.8901
99,São Miguel dos Campos,23.0,94,20,2.06,-9.7811,-36.0936
100,Megion,6.0,45,0,4.0,61.0296,76.1136
101,Los Llanos de Aridane,19.0,72,75,2.06,28.6585,-17.9182
102,Kawalu,29.32,59,26,1.51,-7.3817,108.2082
103,Souillac,25.0,88,75,6.69,-20.5167,57.5167
104,Joshīmath,18.54,31,0,1.14,30.5667,79.5667
105,Hasaki,17.22,31,20,5.66,35.7333,140.8333
106,Fengcheng,19.44,27,100,4.45,40.4536,124.0717
107,Pevek,-3.74,85,99,0.67,69.7008,170.3133
108,Flinders,22.22,42,0,2.57,-34.5833,150.8552
109,Mahébourg,25.0,88,75,6.69,-20.4081,57.7
110,Huambo,15.32,67,74,0.81,-12.7761,15.7392
111,Bumba,20.92,97,100,1.73,2.1833,22.4667
112,Gusev,-0.41,95,99,3.76,54.5922,22.1997
113,Ribeira Grande,15.0,72,20,5.66,38.5167,-28.7
114,Abnūb,23.0,40,0,6.17,27.2696,31.1511
115,Eenhana,17.0,55,0,2.57,-17.4667,16.3333
116,Krasnokamensk,16.0,45,97,7.8,50.0979,118.0369
117,Kahului,26.0,65,75,9.26,20.8947,-156.47
118,Bahawalpur,33.01,11,0,3.63,29.4,71.6833
119,Novaya Igirma,1.91,92,100,4.12,57.1334,103.9112
120,Saskylakh,-9.66,90,100,10.03,71.9167,114.0833
121,São Filipe,22.07,71,99,4.21,14.8961,-24.4956
122,Flin Flon,-1.47,70,100,0.84,54.7682,-101.865
123,Port Lincoln,18.96,63,1,3.42,-34.7333,135.8667
124,Pacific Grove,12.22,76,90,4.12,36.6177,-121.9166
125,Vaini,27.0,83,40,2.57,-21.2,-175.2
126,Cabo San Lucas,23.89,40,90,5.14,22.8909,-109.9124
127,Gisborne,17.22,51,27,0.45,-38.6533,178.0042
128,Ponta do Sol,15.0,83,47,0.89,32.6667,-17.1
129,Lorengau,29.72,66,90,1.54,-2.0226,147.2712
130,Bandarbeyla,27.71,71,100,2.74,9.4942,50.8122
131,Lokoja,24.12,87,93,1.59,7.8024,6.743
132,Port Elizabeth,14.0,88,0,1.27,-33.918,25.5701
133,Turukhansk,-6.11,71,34,1.76,65.8167,87.9833
134,Sarmanovo,3.0,70,0,8.0,55.2553,52.5891
135,Faya,16.0,67,40,3.31,18.3851,42.4509
136,Denpasar,30.0,79,20,4.63,-8.65,115.2167
137,Tiksi,-2.27,94,100,5.24,71.6872,128.8694
138,Saint-Philippe,25.0,65,0,6.17,-21.3585,55.7679
139,Vestmanna,6.0,100,100,8.75,62.1564,-7.1664
140,Phan Thiet,31.14,60,66,1.8,10.9333,108.1
141,Upernavik,-3.21,79,46,2.28,72.7868,-56.1549
142,Ancud,11.67,100,90,1.03,-41.8697,-73.8203
143,Chokurdakh,-0.94,97,100,5.31,70.6333,147.9167
144,San Cristobal,26.0,83,75,1.54,7.7669,-72.225
145,Busing,28.17,63,56,2.55,13.1514,122.9714
146,Severo-Kuril'sk,-0.04,97,100,6.47,50.6789,156.125
147,Talnakh,-13.07,87,98,3.65,69.4865,88.3972
148,Sooke,9.44,88,100,5.14,48.3746,-123.7276
149,Samaná,23.95,83,9,3.06,19.2056,-69.3369
150,Zhangjiakou Shi Xuanhua Qu,16.39,49,88,1.9,40.6103,115.0447
151,Barrow,-6.0,79,1,6.69,71.2906,-156.7887
152,Vilhena,19.86,99,100,1.53,-12.7406,-60.1458
153,Severnyy-Kospashskiy,2.22,92,97,1.34,59.0925,57.8008
154,Gushikawa,26.0,50,20,4.63,26.3544,127.8686
155,Nālūt,19.39,28,61,6.74,30.3333,10.85
156,Peruíbe,21.37,89,100,1.15,-24.32,-46.9983
157,Narsaq,10.0,32,75,13.89,60.9167,-46.05
158,Bengkulu,29.01,67,42,2.18,-3.8004,102.2655
159,Halifax,7.78,96,100,3.58,44.6453,-63.5724
160,San Quintín,14.22,80,34,4.25,30.4833,-115.95
161,Padang,28.68,71,92,0.78,-0.9492,100.3543
162,Praia,20.0,77,40,4.63,14.9215,-23.5087
163,Vila Velha,25.0,83,0,1.54,-20.3297,-40.2925
164,Kavieng,29.01,66,94,1.16,-2.5744,150.7967
165,Dingzhou,18.0,68,68,3.0,38.5131,114.9956
166,Naliya,29.89,49,0,4.23,23.2667,68.8333
167,Berlevåg,0.0,93,40,5.14,70.8578,29.0864
168,Saldanha,16.0,94,14,4.12,-33.0117,17.9442
169,Tasiilaq,3.0,70,90,6.69,65.6145,-37.6368
170,Nikolskoye,3.89,93,90,5.0,59.7035,30.7861
171,Grants Pass,8.0,87,90,2.06,42.439,-123.3284
172,Lakes Entrance,18.89,64,8,0.89,-37.8811,147.981
173,Fairbanks,18.0,17,1,1.54,64.8378,-147.7164
174,Ondangwa,17.0,55,0,2.57,-17.9167,15.95
175,Provideniya,5.0,60,0,3.0,64.3833,-173.3
176,Goma,15.72,91,96,1.34,-1.6792,29.2228
177,Bilibino,-4.01,79,100,1.37,68.0546,166.4372
178,Dingle,32.15,52,73,2.38,10.9995,122.6711
179,Kwinana,26.67,44,30,2.57,-32.25,115.7667
180,Derazhnya,0.81,90,82,2.84,49.2692,27.4338
181,Lagoa,14.98,85,100,5.06,39.05,-27.9833
182,Havelock,13.33,87,57,0.96,34.8791,-76.9013
183,Chui,15.57,77,54,3.68,-33.6971,-53.4616
184,Cayenne,26.0,94,75,4.12,4.9333,-52.3333
185,Aitape,29.43,64,92,1.99,-3.1374,142.3475
186,Lompoc,12.0,82,100,3.09,34.6391,-120.4579
187,Fochville,12.22,40,48,0.39,-26.4886,27.4939
188,Pishin,22.36,12,0,0.21,30.5803,66.9961
189,Coari,23.53,97,76,0.99,-4.085,-63.1414
190,Gladstone,27.0,41,0,6.17,-23.85,151.25
191,Alofi,29.0,74,86,3.09,-19.0595,-169.9187
192,High Rock,26.0,94,20,4.12,26.6208,-78.2833
193,Hofn,6.18,71,11,6.61,64.2539,-15.2082
194,Ostrovnoy,-0.31,95,100,10.34,68.0531,39.5131
195,Nanortalik,3.27,90,100,2.38,60.1432,-45.2371
196,Pasinler,11.0,66,75,2.57,39.9803,41.6764
197,Kavaratti,28.89,73,22,3.02,10.5669,72.642
198,Coquimbo,12.0,94,0,1.77,-29.9533,-71.3436
199,Talaya,-9.01,54,78,1.3,61.3833,152.75
200,Sechura,21.25,75,60,7.48,-5.5569,-80.8222
201,Kodinsk,2.6,96,100,3.13,58.6881,99.1844
202,Husavik,2.0,87,90,3.6,66.0449,-17.3389
203,Kiryat Gat,20.0,100,9,5.16,31.61,34.7642
204,Huarmey,19.63,85,8,4.01,-10.0681,-78.1522
205,Newton,10.0,93,81,3.09,42.337,-71.2092
206,Dodge City,21.11,55,1,7.2,37.7528,-100.0171
207,Katsuura,16.67,30,20,4.12,35.1333,140.3
208,Shellbrook,7.0,26,40,2.06,53.2168,-106.4011
209,Gummidipundi,30.0,70,20,2.57,13.4,80.15
210,George Town,31.0,74,20,2.57,5.4112,100.3354
211,Cidreira,18.52,62,81,5.88,-30.1811,-50.2056
212,Saint George,22.0,15,1,2.57,37.1041,-113.5841
213,Lyman,5.34,52,100,1.47,48.9884,37.8023
214,Santa Isabel Rio Negro,24.05,96,100,1.19,-0.4139,-65.0192
215,Puerto del Rosario,19.0,72,0,2.06,28.5004,-13.8627
216,Puerto Escondido,28.0,78,40,2.06,15.85,-97.0667
217,Abu Samrah,19.59,43,38,1.9,35.3029,37.1841
218,Umluj,26.15,56,0,4.51,25.0213,37.2685
219,Winnemucca,6.0,75,75,3.09,40.973,-117.7357
220,Arraial do Cabo,23.36,86,66,3.91,-22.9661,-42.0278
221,Lupiro,21.27,98,99,1.1,-8.3833,36.6667
222,Bathsheba,26.0,61,40,7.2,13.2167,-59.5167
223,Codrington,16.0,66,100,4.62,-38.2667,141.9667
224,Vestmannaeyjar,6.96,81,1,2.55,63.4427,-20.2734
225,Marion,9.44,49,40,3.09,39.7684,-86.1555
226,Pedersore,0.56,86,90,7.2,63.65,22.6833
227,Constitución,13.67,78,0,4.22,-35.3333,-72.4167
228,São Félix do Xingu,22.25,98,87,0.58,-6.6447,-51.995
229,Antofagasta,15.0,88,20,1.03,-23.65,-70.4
230,Wainwright,8.0,24,58,2.06,52.839,-110.8572
231,Muroto-misakicho,20.0,24,0,2.06,33.2833,134.15
232,Bischofshofen,1.67,88,27,0.89,47.4167,13.2167
233,Mattru,24.97,93,100,1.2,7.6244,-11.8332
234,Balabac,29.26,69,74,3.19,7.9868,117.0645
235,Tandil,11.11,89,24,1.51,-37.3217,-59.1332
236,Vila Franca do Campo,14.0,88,75,4.63,37.7167,-25.4333
237,La Rioja,14.0,67,90,2.06,42.25,-2.5
238,Urusha,11.44,46,100,3.2,54.05,122.9
239,Nantucket,8.0,93,1,8.23,41.2835,-70.0995
240,Muros,12.78,95,16,2.17,42.7762,-9.0603
241,Castro,13.42,95,98,1.3,-24.7911,-50.0119
242,Birin,25.06,18,1,1.48,26.8865,88.0718
243,Barra de Tecoanapa,27.19,77,88,1.52,16.5167,-98.75
244,College,18.0,19,1,1.02,64.8569,-147.8028
245,Yangi Marg`ilon,21.0,35,1,2.06,40.4272,71.7189
246,Morón,16.67,97,12,2.04,-34.6534,-58.6198
247,Kem',0.74,88,100,7.71,64.9555,34.5793
248,Nauta,22.78,99,100,1.1,-4.5061,-73.5757
249,Dakar,19.0,94,40,8.23,14.6937,-17.4441
250,Chicama,20.56,78,11,2.95,-7.8447,-79.1469
251,Tataouine,15.0,67,100,0.51,32.9297,10.4518
252,Deer Lake,-1.0,93,1,1.54,49.1667,-57.4316
253,Cururupu,23.49,93,71,1.09,-1.8283,-44.8683
254,Palmer,11.0,54,20,5.14,42.1584,-72.3287
255,Arkhangelsk,3.0,93,90,3.0,64.5401,40.5433
256,Francavilla al Mare,7.0,87,75,2.06,42.4206,14.287
257,Santarém,27.0,89,40,1.03,-2.4431,-54.7083
258,Tevriz,7.85,53,73,4.08,57.509,72.4042
259,Kamenka,1.67,70,100,2.29,51.3223,42.7678
260,Simplício Mendes,24.66,73,67,1.04,-7.8539,-41.9103
261,Apatity,-1.11,100,100,3.13,67.5641,33.4031
262,Westport,11.11,76,40,3.09,41.1415,-73.3579
263,Sorong,30.14,62,44,1.94,-0.8833,131.25
264,Mahanoro,21.96,93,100,3.21,-19.9,48.8
265,Yeppoon,27.0,34,1,5.14,-23.1333,150.7333
266,Carnarvon,32.0,22,1,3.09,-24.8667,113.6333
267,Korla,12.37,17,60,3.08,41.7597,86.1469
268,Macao,24.0,78,40,8.23,22.2006,113.5461
269,Bereda,11.11,100,97,0.89,43.2686,-7.5406
270,Mount Isa,31.0,35,86,6.17,-20.7333,139.5
271,Lüderitz,16.47,90,95,1.7,-26.6481,15.1594
272,Rafaela,10.56,85,0,2.2,-31.2503,-61.4867
273,Viedma,12.45,76,31,4.61,-40.8135,-62.9967
274,Mossamedes,24.03,69,0,4.51,-15.1961,12.1522
275,Pangnirtung,-0.62,81,98,2.9,66.1451,-65.7125
276,Selenginsk,5.0,45,40,9.0,52.0064,106.8647
277,Sironko,17.74,94,100,0.77,1.2313,34.2477
278,Mount Gambier,15.0,82,90,2.57,-37.8333,140.7667
279,Arrondissement de Mont-de-Marsan,13.0,76,0,2.57,44.0,-0.6667
280,Olafsvik,4.07,88,14,5.48,64.8945,-23.7142
281,Guerrero Negro,15.18,82,100,5.6,27.9769,-114.0611
282,Kisesa,16.67,91,77,2.34,-3.0833,34.15
283,Goderich,0.0,69,10,4.63,43.7501,-81.7165
284,Batagay,-0.16,97,100,2.88,67.6333,134.6333
285,Saint Paul Harbor,7.0,76,20,4.63,57.79,-152.4072
286,Chebsara,2.0,100,90,4.0,59.2002,38.8356
287,Ouégoa,26.48,66,67,3.41,-20.35,164.4333
288,Río Gallegos,12.0,50,0,5.66,-51.6226,-69.2181
289,Mackay,26.0,61,40,8.23,-21.15,149.2
290,Finote Selam,16.97,76,100,1.09,10.7,37.2667
291,Listvyanskiy,9.44,42,100,4.25,54.4399,83.4984
292,Omsukchan,-7.49,65,100,1.22,62.5333,155.8
293,Avera,16.0,60,1,2.34,33.194,-82.5271
294,Nabire,29.54,67,87,2.27,-3.3667,135.4833
295,Colquechaca,-3.41,84,24,1.75,-18.6667,-66.0167
296,Barcelos,14.0,94,0,2.57,41.5388,-8.6151
297,Kudahuvadhoo,28.26,69,71,1.88,2.6708,72.8944
298,Sinnamary,25.17,90,100,4.23,5.3833,-52.95
299,Takoradze,26.38,86,100,2.47,4.8845,-1.7554
300,Necochea,12.78,88,49,2.08,-38.5473,-58.7368
301,Namatanai,28.69,69,100,1.79,-3.6667,152.4333
302,Wagar,29.35,42,27,3.29,16.1525,36.2032
303,Yar-Sale,0.76,100,100,5.59,66.8333,70.8333
304,Rio Claro,21.67,77,0,1.03,-22.4114,-47.5614
305,Saint-Pierre,25.0,65,0,6.17,-21.3393,55.4781
306,Qaqortoq,10.0,32,75,13.89,60.7167,-46.0333
307,Ilulissat,8.0,46,75,10.8,69.2167,-51.1
308,Nouadhibou,18.0,88,0,6.17,20.931,-17.0347
309,Bitung,33.0,55,20,2.57,1.4451,125.1824
310,Yuli,27.48,58,92,1.07,9.6989,10.2744
311,Midland,26.11,25,1,7.72,31.9974,-102.0779
312,Sisimiut,3.48,78,100,2.73,66.9395,-53.6735
313,Bintulu,31.0,74,40,2.06,3.1667,113.0333
314,Half Moon Bay,12.22,87,1,3.09,37.4636,-122.4286
315,Los Andes,15.0,62,0,0.51,-32.8337,-70.5983
316,Nioro,24.11,37,9,3.59,13.35,-15.75
317,Lubao,28.0,74,75,4.12,14.9167,120.55
318,Warwick,9.44,81,1,4.04,41.7001,-71.4162
319,Prince Albert,7.0,26,40,2.06,53.2001,-105.7677
320,Yuxia,13.0,88,90,2.0,34.0615,108.6291
321,Saint-Leu,25.0,65,0,6.17,-21.15,55.2833
322,Nhulunbuy,29.0,74,40,1.54,-12.2333,136.7667
323,Atkinson,9.0,81,90,2.08,42.8384,-71.147
324,Cherskiy,-5.56,72,89,2.71,68.75,161.3
325,Tselinnoye,5.8,65,100,2.86,53.0833,85.6667
326,Kaeo,18.33,71,16,3.13,-35.1,173.7833
327,Samarai,30.0,68,63,5.06,-10.6167,150.6667
328,Airai,22.89,39,47,1.3,-8.9266,125.4092
329,Petra,16.05,29,1,3.64,30.3222,35.4793
330,Vostok,8.44,26,9,4.26,46.4856,135.8833
331,Terrace,15.0,21,1,3.09,54.5163,-128.6035
332,Caravelas,24.05,85,2,2.95,-17.7125,-39.2481
333,Le Vauclin,24.0,73,20,1.03,14.5452,-60.8388
334,Sistranda,2.0,93,75,3.09,63.7256,8.834
335,Karratha,30.94,21,0,6.28,-20.7377,116.8463
336,Belyy Yar,8.0,39,0,2.0,53.6039,91.3903
337,Union,15.0,50,1,1.54,40.6334,-74.2663
338,Atar,24.78,21,0,2.51,20.5169,-13.0499
339,Port-Gentil,27.88,78,52,2.99,-0.7193,8.7815
340,Kerchevskiy,2.63,81,100,4.26,59.946,56.2884
341,Honiara,29.46,75,79,1.87,-9.4333,159.95
342,Pemangkat,29.88,65,5,0.5,1.1667,108.9667
343,Batagay-Alyta,-1.43,86,100,1.62,67.8006,130.4114
344,Luanda,26.0,94,20,2.06,-8.8368,13.2343
345,Fortuna,10.0,87,75,1.54,40.5982,-124.1573
346,Missoula,7.22,87,40,2.06,47.0166,-113.8009
347,Avallon,10.0,51,100,3.71,47.4833,3.9
348,Morgan City,17.78,100,1,1.72,29.6994,-91.2068
349,Mandiana,26.12,56,66,1.72,10.6333,-8.6833
350,North Platte,19.44,44,1,4.12,41.1239,-100.7654
351,Mbuguni,19.53,91,96,1.39,-3.5667,36.95
352,Camalú,12.22,61,4,0.89,30.85,-116.0667
353,Deputatsky,-2.46,82,73,1.84,69.3,139.9
354,Maceió,23.0,94,20,2.06,-9.6658,-35.7353
355,Pimentel,18.33,84,39,1.79,-6.8367,-79.9342
356,Benghazi,16.09,82,0,4.31,32.1167,20.0667
357,Santo Estêvão,21.68,92,100,1.92,-12.4303,-39.2514
358,Diffa,26.8,25,69,1.72,13.3154,12.6113
359,Ust'-Koksa,2.45,51,96,1.14,50.2696,85.6108
360,Bāndarban,30.0,84,0,1.54,22.1965,92.2262
361,Arrondissement de Saint-Denis,7.22,65,0,5.14,48.9167,2.3333
362,Susanville,2.22,87,20,4.12,40.4163,-120.653
363,Taoudenni,30.02,15,8,2.98,22.6783,-3.9836
364,Hammelburg,3.33,71,94,1.34,50.1167,9.9
365,Bambous Virieux,25.0,88,75,6.69,-20.3428,57.7575
366,Bossangoa,21.58,79,97,1.7,6.4926,17.4552
367,Byron Bay,22.0,64,40,5.66,-28.65,153.6167
368,Nouakchott,21.0,68,0,6.17,18.0858,-15.9785
369,Ketchikan,13.0,50,1,2.57,55.3422,-131.6461
370,Ol'ga,12.31,29,4,3.44,43.7444,135.2892
371,Pouébo,25.88,68,68,2.2,-20.4,164.5667
372,Laas,8.33,81,0,2.57,46.6166,10.7002
373,Ternate,29.47,68,64,2.97,0.8,127.4
374,Baoning,16.0,94,75,3.0,25.3378,110.026
375,Saint-Augustin,2.48,79,24,3.08,51.226,-58.6502
376,Enid,20.0,72,1,6.17,36.3956,-97.8784
377,Chumikan,5.29,71,88,4.17,54.7183,135.315
378,Bonavista,5.0,70,12,3.6,48.6499,-53.1147
379,Longyearbyen,-11.0,73,20,2.57,78.2186,15.6401
380,Sibolga,29.53,63,87,1.21,1.7427,98.7792
381,Erzin,18.89,71,86,0.9,36.9559,36.2
382,Moranbah,25.82,39,33,6.92,-22.0016,148.0466
383,Marawi,28.89,77,93,2.68,7.9986,124.2928
384,Lodja,20.05,99,100,0.57,-3.4833,23.4333
385,Paamiut,1.77,98,100,2.19,61.994,-49.6678
386,Uruçuca,20.79,99,22,0.5,-14.5931,-39.2844
387,Norman Wells,1.0,44,20,6.17,65.282,-126.8329
388,Haines Junction,12.0,24,0,3.09,60.7522,-137.5108
389,Balsas,22.71,91,100,0.35,-7.5325,-46.0356
390,Polyarny,-1.0,93,75,3.0,69.1989,33.4478
391,Letka,0.88,95,100,1.78,59.6011,49.4232
392,Grindavik,3.0,93,0,5.66,63.8424,-22.4338
393,Sanming,21.8,73,100,0.55,26.2486,117.6186
394,Mandalgovi,0.24,73,88,13.9,45.7625,106.2708
395,Broome,4.44,70,75,5.66,42.2506,-75.833
396,Puerto Madryn,15.6,52,10,9.43,-42.7692,-65.0385
397,Tōbetsu,7.78,52,20,6.69,43.2169,141.5169
398,Freeport,14.0,62,20,3.6,40.6576,-73.5832
399,Beringovskiy,-0.04,90,52,0.68,63.05,179.3167
400,Temba,14.44,66,1,1.03,-25.3803,28.2631
401,Hailey,5.0,75,90,1.97,43.5196,-114.3153
402,Pangkalanbuun,32.05,57,45,1.35,-2.6833,111.6167
403,Bowen,26.0,65,90,7.72,-20.0167,148.2333
404,Darhan,4.66,51,100,10.2,49.4867,105.9228
405,Sirsi,28.45,55,10,0.19,14.6167,74.85
406,Lázaro Cárdenas,24.92,73,100,1.98,17.9583,-102.2
407,Newport,5.0,80,10,5.75,51.5877,-2.9984
408,Oparino,1.16,91,100,1.99,59.8518,48.2783
409,Anaconda,3.0,93,90,3.09,46.1285,-112.9423
410,Alyangula,25.0,100,75,5.14,-13.8483,136.4192
411,Buala,28.99,74,71,1.18,-8.145,159.5921
412,Emilio Carranza,25.26,82,64,1.9,19.9711,-96.6114
413,Shelburne,1.11,75,39,5.61,44.0787,-80.2041
414,Biak,28.41,66,79,2.86,-0.9131,122.8766
415,Rockport,23.33,83,75,6.17,28.0206,-97.0544
416,Wasilla,16.0,25,1,0.31,61.5814,-149.4394
417,Adrar,25.59,21,39,3.83,20.5022,-10.0711
418,Coihueco,11.0,100,0,2.06,-36.6167,-71.8333
419,Erdenet,0.42,63,98,8.04,49.0333,104.0833
420,Morant Bay,26.0,78,20,1.03,17.8815,-76.4093
421,Xuanzhou,18.14,86,100,0.86,30.9525,118.7553
422,Sundumbili,15.0,94,0,1.03,-29.1337,31.3975
423,Malangali,16.67,94,81,2.16,-8.5667,34.85
424,Timaru,17.78,24,97,5.36,-44.4,171.25
425,Āreka,15.86,95,100,0.38,7.0667,37.7
426,Kloulklubed,30.0,74,75,7.72,7.0419,134.2556
427,Humboldt,10.0,87,75,1.54,40.6665,-123.9178
428,Beloeil,6.11,75,90,7.72,45.5668,-73.1992
429,Mayo,14.0,62,1,1.54,38.8876,-76.5119
430,Belmonte,24.0,88,40,2.06,-15.8631,-38.8828
431,Geraldton,31.0,19,0,8.23,-28.7667,114.6
432,Tuatapere,8.89,72,97,8.94,-46.1333,167.6833
433,Biu,26.41,42,94,1.45,10.6129,12.1946
434,Bemidji,1.67,100,90,3.6,47.4736,-94.8803
435,Sweetwater,26.67,83,1,2.57,25.7634,-80.3731
436,Drumnadrochit,7.0,87,100,2.57,57.3344,-4.4799
437,Bairiki Village,29.0,74,40,4.63,1.3292,172.9752
438,Neuenhagen,2.78,79,0,1.84,52.5299,13.6891
439,Wamba,24.15,78,98,1.13,8.9333,8.6
440,Bouca,21.69,90,99,2.16,6.5105,18.2733
441,Camacha,17.0,82,40,8.75,33.0833,-16.3333
442,Edgewater,21.0,78,1,3.6,28.9889,-80.9023
443,Walvis Bay,15.56,100,27,2.06,-22.9575,14.5053
444,Esim,26.61,84,100,2.65,4.8699,-2.2405
445,Englewood,21.67,11,40,7.2,39.6478,-104.9878
446,Bay Roberts,5.0,85,27,0.45,47.5999,-53.2648
447,Port Hedland,32.0,12,0,9.77,-20.3167,118.5667
448,Tautira,28.0,69,20,2.06,-17.7333,-149.15
449,Mazara del Vallo,12.0,100,0,2.06,37.6641,12.588
450,Puyo,18.36,96,96,1.47,-1.4667,-77.9833
451,Dhadar,31.52,5,0,1.16,28.3305,75.0632
452,Orcopampa,6.71,73,7,0.37,-15.2661,-72.3417
453,Fare,27.49,63,1,0.49,-16.7,-151.0167
454,Celestún,26.3,80,2,6.05,20.8667,-90.4
455,Saurikh,33.34,7,0,2.76,27.029,79.4896
456,Chioggia,13.33,87,0,4.12,45.2256,12.2889
457,Dovbysh,-1.26,66,4,2.24,50.3733,27.9874
458,Ayagoz,8.77,32,28,1.08,47.9714,80.4392
459,Bairnsdale,18.33,65,23,0.45,-37.8333,147.6167
460,Fremont,12.78,71,1,3.09,37.5483,-121.9886
461,Jussara,19.0,77,0,3.09,-23.6214,-52.4694
462,Rome,4.44,65,90,7.2,43.2128,-75.4557
463,Mórrope,18.33,84,76,1.79,-6.5417,-80.0111
464,Sakakah,24.0,23,0,5.14,29.9697,40.2064
465,Henties Bay,15.56,93,4,0.89,-22.116,14.2845
466,Luena,14.71,85,14,1.57,-11.7833,19.9167
467,Whitehorse,14.0,18,1,5.66,60.7161,-135.0538
468,Pervomayskiy,3.33,65,1,3.01,53.2485,40.2871
469,Angers,10.56,53,0,4.63,47.4667,-0.55
470,Zhigansk,-3.52,95,100,8.22,66.7697,123.3711
471,Elblag,-0.56,85,96,2.5,54.1522,19.4088
472,Nueva Gerona,26.09,75,17,1.81,21.8833,-82.8
473,Hobyo,28.36,64,85,3.58,5.3505,48.5268
474,Tomatlán,21.79,87,80,0.71,19.9333,-105.25
475,Abapó,14.35,74,72,0.12,-18.8333,-63.4667
476,Waingapu,29.17,55,18,5.4,-9.6567,120.2641
477,Kamień Pomorski,0.0,80,0,1.03,53.9685,14.7726
478,Vanimo,29.23,63,100,1.55,-2.6741,141.3028
479,Manatí,24.44,82,9,3.15,18.4275,-66.4921
480,Buin,15.0,62,0,0.51,-33.7333,-70.75
481,Ruteng,23.52,59,94,0.93,-8.6136,120.4721
482,Fengzhen,15.22,36,26,7.73,40.4394,113.1536
483,Opuwo,16.53,60,0,0.96,-18.0607,13.84
484,La Ronge,2.0,44,100,1.03,55.1001,-105.2842
485,Fatehpur,33.86,9,54,3.29,25.9333,80.8
486,Norfolk,8.89,87,75,3.11,42.1668,-71.2495
487,Pictou,10.0,71,100,5.66,45.6834,-62.7153
488,Riachão,22.36,89,100,0.85,-7.3619,-46.6172
489,Leningradskiy,-1.32,84,100,0.81,69.3833,178.4167
490,Pisco,18.0,88,0,0.51,-13.7,-76.2167
491,Lavrentiya,0.67,93,96,0.16,65.5833,-171.0
492,Härnösand,1.0,55,90,4.63,62.6323,17.9379
493,Nador,15.0,94,13,0.51,35.174,-2.9287
494,Payson,11.67,71,1,7.2,40.0444,-111.7321
495,Kultuk,4.63,64,100,6.06,51.7208,103.6956
496,Martinsville,10.0,93,1,1.8,36.6915,-79.8725
497,Pochutla,28.33,74,97,0.89,15.7432,-96.4661
498,Jaraguá,20.0,77,40,2.06,-15.7569,-49.3344
499,Portland,12.22,66,75,4.12,45.5234,-122.6762
500,Ucluelet,10.56,82,100,0.59,48.9329,-125.5528
501,Misratah,16.17,86,16,4.79,32.3754,15.0925
502,Anadyr,-2.0,93,75,1.56,64.75,177.4833
503,Poum,25.23,69,52,9.87,-20.2333,164.0167
504,Am Timan,26.35,64,100,3.05,11.0297,20.2827
505,Den Helder,5.0,70,90,2.06,52.9599,4.7593
506,Sept-Îles,5.0,60,75,3.09,50.2001,-66.3821
507,Vao,23.51,69,77,7.02,-22.6667,167.4833
508,El Higo,25.98,74,89,3.57,21.7667,-98.4667
509,Nacala,22.23,96,89,2.59,-14.5428,40.6728
510,Prieska,17.29,28,96,1.63,-29.6641,22.7474
511,Huilong,22.22,53,8,5.52,31.8111,121.655
512,Saurimo,17.91,92,74,1.16,-9.6608,20.3916
513,La Sarre,-7.28,85,43,4.82,48.8002,-79.1996
514,Altay,4.79,25,38,0.97,47.8667,88.1167
515,Murud,28.99,74,87,0.09,18.3258,72.965
516,Peque,20.39,96,100,0.84,7.0212,-75.9093
517,Dongsheng,9.27,12,4,10.64,39.8161,109.9776
518,Gornopravdinsk,7.06,68,95,4.95,60.05,69.9
519,Gáldar,18.0,72,75,3.45,28.147,-15.6502
520,Alice Springs,24.0,23,0,5.66,-23.7,133.8833
521,Shimoda,14.0,38,20,7.72,34.6667,138.95
522,Nieuw Nickerie,25.47,86,87,4.86,5.95,-56.9833
523,Reading,3.33,80,6,1.54,51.4562,-0.9711
524,Pontes e Lacerda,19.53,98,100,1.2,-15.2261,-59.3353
525,Moose Factory,-6.0,73,1,0.49,51.2585,-80.6094
526,Port Blair,29.0,84,40,1.03,11.6667,92.75
527,Sobolevo,-1.57,85,11,2.7,54.4299,31.8996
528,Cukai,31.0,70,20,1.03,4.25,103.4167
529,Timizart,16.8,48,58,4.69,36.8,4.2667
530,Beeville,22.0,94,40,4.63,28.4008,-97.7483
531,Keuruu,2.22,100,90,3.6,62.2667,24.7
532,Mpika,14.74,97,45,2.3,-11.8343,31.4529
533,Tiznit Province,13.5,78,80,0.86,29.5833,-9.5
534,Zhuangyuan,17.86,51,92,4.03,37.2975,120.8256
535,Madimba,23.03,95,100,3.41,-10.4,40.3333
536,Volya,4.0,75,0,1.0,51.7651,39.5404
537,Coshocton,6.11,72,100,0.45,40.272,-81.8596
538,Banjar,30.0,79,20,4.63,-8.19,114.9675
539,Swan Hill,19.86,34,0,3.57,-35.3378,143.5544
540,Assiniboia,2.0,87,100,4.63,49.6334,-105.9845
541,Nizhniy Kuranakh,3.01,96,100,3.44,58.8353,125.4869
542,Calamar,24.0,100,75,4.12,10.2511,-74.9146
543,Camocim,24.55,85,9,3.52,-2.9022,-40.8411
544,Hadejia,28.17,34,99,3.91,12.4498,10.0444
545,São João da Barra,23.29,91,75,2.18,-21.6403,-41.0511
546,Eyl,27.62,76,97,3.11,7.9803,49.8164
547,Acolla,9.69,84,100,0.33,-11.7319,-75.5463
548,Chamonix,9.44,74,100,0.82,45.9238,6.8693
549,Oxford,2.0,80,6,1.54,51.7522,-1.256
550,Shache,18.64,15,0,2.78,38.4167,77.2406
551,Carutapera,24.45,91,49,2.1,-1.195,-46.02
552,Srīvardhan,28.56,77,95,0.67,18.0333,73.0167
553,Mariquita,22.39,94,95,1.42,5.1989,-74.893
554,Mogadishu,28.17,75,76,4.9,2.0371,45.3438
555,Mongar,23.44,33,0,1.87,27.2747,91.2396
556,Bindura,14.44,79,59,1.79,-17.3019,31.3306
557,Bridgeton,11.67,81,40,2.57,39.4273,-75.2341
558,Antsohihy,21.54,89,100,1.84,-14.8796,47.9875
559,Sosnovoborsk,8.0,49,0,4.0,56.1325,93.3589
560,Adeje,19.0,77,75,3.09,28.1227,-16.726
561,Harper,24.2,88,97,2.53,4.375,-7.7169
562,Novy Urengoy,-0.19,91,100,6.23,66.0833,76.6333
563,Maple Creek,5.0,70,100,1.54,49.9168,-109.4848
564,Northam,6.11,84,37,5.36,51.0333,-4.2167
565,Kieta,30.31,63,23,3.24,-6.2167,155.6333
566,Kharp,0.65,98,100,3.13,66.8014,65.8081
567,Verkhoyansk,0.97,99,100,2.16,67.5447,133.385
568,Bandeirantes,19.3,65,78,1.5,-23.11,-50.3675
